,Code,name,latitude,longitude,density,elevation_meters
0,10002,Métro Charlevoix (Centre / Charlevoix),45.47822787309145,-73.56965124607086,18,16
1,4000,Jeanne-d'Arc / Ontario,45.54959767887176,-73.54187428951263,13,21
2,4001,Graham / Brookfield,45.52007477080967,-73.6297756433487,7,56
3,4002,Graham / Wicksteed,45.51693654712809,-73.64048302173615,3,53
4,5002,St-Charles / Montarville,45.53368199320325,-73.51526074111462,3,16
5,5003,Place Longueuil,45.52841043752244,-73.51716578006744,3,15
6,5004,St-Charles / Grant,45.539824,-73.508752,2,13
7,5005,St-Charles / St-Jean,45.53690747306937,-73.51191401481627,3,16
8,5007,Métro Longueuil - Université de Sherbrooke,45.52331869398737,-73.52012693881989,1,11
9,6001,Métro Champ-de-Mars (Viger / Sanguinet),45.51035067563653,-73.55650842189789,34,13
10,6002,Ste-Catherine / Dezery,45.53938508196168,-73.54099988937377,7,16
11,6003,Clark / Evans,45.51100666600306,-73.56760203838348,57,34
12,6004,du Champ-de-Mars / Gosford,45.50965520472071,-73.55400860309601,28,32
13,6005,Metcalfe / du Square-Dorchester,45.500208064155046,-73.57113786041737,52,54
14,6006,18e avenue / Rosemont,45.55789545752947,-73.5765291005373,8,61
15,6007,de l'Hôtel-de-Ville / Ste-Catherine,45.51166045593874,-73.56213569641113,48,26
16,6008,Sanguinet / Ste-Catherine,45.51279685582333,-73.56146247242577,48,34
17,6009,Crescent / de Maisonneuve,45.49811161443597,-73.57761539518833,41,54
18,6011,St-André / St-Antoine,45.51411452790017,-73.55264469981194,25,17
19,6012,Métro St-Laurent (de Maisonneuve / St-Laurent),45.51066,-73.56497,54,28
20,6013,Sanguinet / de Maisonneuve,45.51340553558378,-73.56259435415267,48,29
21,6014,St-Denis / René-Lévesque,45.51287121578035,-73.55846643447876,42,33
22,6015,BAnQ (Berri / de Maisonneuve),45.515299,-73.561273,45,31
23,6016,Jacques-Le Ber / de la Pointe Nord,45.472503,-73.539285,1,12
24,6017,Atateken / du Square Amherst,45.52063377251984,-73.56390595436096,43,29
25,6018,St-André / Ontario,45.51889,-73.56353,47,29
26,6019,Métro Sherbrooke (de Rigaud / Berri),45.51799893773692,-73.56818407773972,51,52
27,6020,Sanguinet / Ontario,45.51476724402057,-73.56549113988876,50,30
28,6021,de l'Hôtel-de-Ville / Sherbrooke,45.5145646696576,-73.56840670108795,58,42
29,6022,William-Tremblay / Molson,45.541719808901306,-73.56517732143402,23,46
30,6023,de la Commune / Berri,45.51086,-73.54983,19,14
31,6024,Bellerive / Duchesneau,45.60761595633475,-73.50982189178467,3,10
32,6025,Notre-Dame / St-Gabriel,45.50714391928411,-73.55511903762817,31,40
33,6026,de la Commune / Place Jacques-Cartier,45.50761009451047,-73.55183601379395,24,13
34,6027,de Maisonneuve / Mansfield (sud),45.502053864057466,-73.57346534729004,46,64
35,6029,Bourget / St-Jacques,45.48084576334506,-73.58386158943176,17,18
36,6031,de Maisonneuve / Robert-Bourassa,45.50426292830073,-73.57152342796326,43,63
37,6032,Métro Place-d'Armes (Viger / St-Urbain),45.50623,-73.55976,45,24
38,6033,16e avenue / Beaubien,45.55828063767652,-73.58315885066986,7,64
39,6035,Viger / Chenneville,45.50531166520915,-73.56089115142822,49,22
40,6036,de la Commune / St-Sulpice,45.50424245563397,-73.553469479084,27,15
41,6037,St-Nicolas / Place d'Youville,45.501966859101564,-73.55515256524086,30,19
42,6038,McGill / Place d'Youville,45.49975,-73.55566,31,21
43,6039,McGill / des Récollets,45.500779,-73.558826,39,31
44,6040,St-Jacques / St-Pierre,45.50278649802565,-73.55913430452347,41,40
45,6041,St-Jacques / McGill,45.50144108135568,-73.56014415621758,42,31
46,6042,de la Gauchetière / Robert-Bourassa,45.50060578095098,-73.56544822454453,58,61
47,6043,Square Victoria (Viger / du Square-Victoria),45.50206,-73.56295,49,13
48,6044,Roy / St-André,45.521564270906616,-73.57036739587784,49,47
49,6046,Métro Bonaventure (de la Gauchetière / de la Cathédrale),45.49831217703312,-73.56725603342056,55,63
50,6047,University / Prince-Arthur,45.507401678946415,-73.57844352722168,39,61
51,6048,William / St-Henri,45.49891911390352,-73.55725407600403,33,20
52,6049,Queen / Wellington,45.49760527699099,-73.55534970760345,27,20
53,6050,St-Maurice / Robert-Bourassa,45.49857779102015,-73.56024205684662,41,21
54,6051,de Gaspé / Marmier,45.529686,-73.601728,45,66
55,6052,de la Commune / King,45.49751503379366,-73.55257093906403,28,15
56,6053,du Président-Kennedy / Jeanne-Mance,45.50820461505136,-73.56881439685822,57,38
57,6057,Peel / de la Gauchetiere,45.4977183451679,-73.5681800544262,52,33
58,6058,Cypress / Peel,45.49932551028458,-73.57176750898361,49,47
59,6059,de la Cathédrale / René-Lévesque,45.499191207076606,-73.56942057609558,52,40
60,6060,Belmont / Robert-Bourassa,45.501366848348894,-73.56583714485167,52,61
61,6061,Mansfield / Ste-Catherine,45.50139870932151,-73.57178628444672,52,54
62,6062,Drummond / Ste-Catherine,45.49863930330429,-73.57422709465027,45,47
63,6063,Drummond / de Maisonneuve,45.49947,-73.57591,45,50
64,6064,Métro Peel (de Maisonneuve / Stanley),45.50038,-73.57507,46,62
65,6065,de la Montagne / Sherbrooke,45.49974475043378,-73.57903361320496,41,54
66,6066,McTavish / des Pins,45.50530549708951,-73.58100235462189,20,76
67,6067,Porte-de-Québec / St-Hubert,45.51249475526989,-73.55087846517563,3,25
68,6068,2e avenue / Jean-Rivard,45.56250903804892,-73.61656039953232,4,45
69,6070,Milton / University,45.5064484,-73.57634872,43,49
70,6072,Metcalfe / de Maisonneuve,45.50171494932855,-73.57413053512573,47,64
71,6073,de Maisonneuve / Aylmer (ouest),45.50501,-73.57069,56,45
72,6075,University / des Pins,45.50829509569767,-73.58064293861388,53,80
73,6076,de Ville-Marie / Ste-Catherine,45.55792114867545,-73.52914720773697,5,16
74,6078,St-Alexandre / Ste-Catherine,45.50538225593995,-73.56763422489166,58,46
75,6079,Hutchison / Prince-Arthur,45.50975858607626,-73.57610732316971,44,52
76,6080,Métro Vendôme (de Marlowe / de Maisonneuve),45.47393028235147,-73.60473453998564,6,50
77,6081,Mackay / Ste-Catherine,45.49570931691902,-73.5769522190094,44,49
78,6082,5e avenue / Rosemont,45.54990048023633,-73.58308374881744,17,64
79,6083,Square Phillips,45.50373771539475,-73.56810629367828,57,49
80,6084,Duke / Brennan,45.495581350533946,-73.55371087789534,20,11
81,6085,Notre-Dame / Peel,45.4952,-73.56328,37,16
82,6086,Basin / du Séminaire,45.49045242854756,-73.56017231941223,23,16
83,6087,Notre-Dame / de la Montagne,45.49302901258371,-73.56481790542603,34,19
84,6088,Richmond / Notre-Dame,45.4891601257399,-73.56777101755141,29,20
85,6089,Henri-Julien / du Carmel,45.527839413108,-73.59482109546661,43,68
86,6090,Métro Lucien-L'Allier  (Lucien l'Allier / Argyle),45.49487159597493,-73.57112377882004,48,37
87,6091,Joseph-Manseau / René-Lévesque,45.49168652100804,-73.57676714658737,35,51
88,6092,Crescent / Ste-Catherine,45.49709201687824,-73.57554942369461,43,45
89,6093,Atwater / Sherbrooke,45.4912258547597,-73.58763009309769,17,57
90,6094,de Gaspé / Fairmount,45.52564776553033,-73.5929274559021,51,66
91,6095,Chomedey / de Maisonneuve,45.49180027678722,-73.58400642871855,21,56
92,6096,Lucien L'Allier / St-Jacques,45.49356916133978,-73.56857568025589,43,15
93,6097,Ste-Catherine / St-Marc,45.492897397177465,-73.58029425144196,30,52
94,6098,Bishop / Ste-Catherine,45.49658329569871,-73.5765016078949,38,45
95,6099,Ste-Catherine / Labelle,45.51506508398211,-73.55922952294348,42,29
96,6100,Mackay / de Maisonneuve,45.49659,-73.57851,35,52
97,6101,Métro Villa-Maria (Décarie / de Monkland),45.479483,-73.61979,7,96
98,6102,Lincoln / du Fort,45.493034,-73.583836,22,56
99,6103,du Havre / Hochelaga,45.535753085274585,-73.55794072151183,20,26
100,6104,Wolfe / René-Lévesque,45.51681750463149,-73.5541883111,30,24
101,6105,Plessis / René-Lévesque,45.51937252291976,-73.55195805430411,28,21
102,6106,Papineau / René-Lévesque,45.52114,-73.54926,19,19
103,6107,St-Mathieu / Ste-Catherine,45.49367956421703,-73.57914626598358,34,51
104,6108,Logan / Fullum,45.52836601591233,-73.55117082595825,21,20
105,6109,Quai de la navette fluviale,45.513741443172,-73.53838205337523,1,2
106,6110,Poupart / Ste-Catherine,45.52900206660643,-73.54619935154915,12,23
107,6111,Parthenais / Ste-Catherine,45.52600589494234,-73.54886412620544,17,21
108,6112,Montcalm / de Maisonneuve,45.519139183741046,-73.55786561965942,36,27
109,6113,Alexandre-DeSève / Ste-Catherine,45.52123044585842,-73.55386108160019,31,20
110,6114,Métro Papineau (Cartier / Ste-Catherine),45.52353,-73.55199,23,18
111,6115,Benny / de Monkland,45.46685123845205,-73.63162770867348,6,63
112,6116,Plessis / Ontario,45.52349210923463,-73.56073021888733,40,34
113,6117,de Maisonneuve / Aylmer (est),45.50526304478131,-73.57048004865646,56,45
114,6118,de Champlain / Ontario,45.52510954917077,-73.56020584702492,39,28
115,6119,Ontario / de Lorimier,45.52773089755533,-73.55753839015959,36,26
116,6120,Métro Frontenac (Ontario / du Havre),45.53370598779895,-73.55217933654784,21,21
117,6121,du Havre / de Rouen,45.53456256501449,-73.55478646466509,22,21
118,6122,Logan / d'Iberville,45.53057,-73.54913,26,23
119,6123,Alexandre-DeSève / la Fontaine,45.52327641182773,-73.55821833014488,36,28
120,6124,Poupart / Ontario,45.53193889278052,-73.55343863368034,23,22
121,6125,Ellendale / de la Côte-des-Neiges,45.499757,-73.629298,9,83
122,6126,Fullum / de Rouen,45.53213680524969,-73.55871319770813,28,29
123,6127,de Gaspé / Jean-Talon,45.536582447959766,-73.61622512340546,32,59
124,6128,Hogan / Ontario,45.53529548038031,-73.55116009712219,18,27
125,6129,de Bordeaux / Sherbrooke,45.52997069129102,-73.56305301189423,37,46
126,6130,Sherbrooke / Frontenac,45.5367,-73.56081,29,44
127,6131,Fullum / Sherbrooke,45.533924,-73.562425,31,42
128,6132,Larivière / de Lorimier,45.5291345371163,-73.55923354625702,30,27
129,6133,Chapleau / Terrasse Mercure,45.53673838509649,-73.56516659259796,31,50
130,6134,Bercy / Rachel,45.53840340979245,-73.56196403503418,29,45
131,6136,Métro Laurier (Rivard / Laurier),45.52761627,-73.5891147,52,61
132,6137,Cartier / Gauthier,45.53034708827074,-73.56698781251907,38,47
133,6138,Gauthier / de Lorimier,45.53167355364312,-73.56541335582732,36,47
134,6139,Gauthier / Parthenais,45.53292625574653,-73.56377989053726,33,48
135,6140,Marquette / Rachel,45.5298015824607,-73.5702896118164,43,48
136,6141,des Érables / Rachel,45.53354753725336,-73.5668671131134,35,48
137,6142,Calixa-Lavallée / Rachel,45.527794785525096,-73.57193917036057,43,49
138,6143,Rachel / de Brébeuf,45.52689,-73.57264,45,43
139,6145,du Parc-La Fontaine / Duluth,45.52451761488783,-73.57197672128677,46,49
140,6146,du Parc-La Fontaine / Roy,45.52317047138824,-73.56901288032532,47,43
141,6147,Calixa-Lavallée / Sherbrooke,45.52479,-73.56545,40,40
142,6148,Émile-Duployé / Sherbrooke,45.52720058937288,-73.56472939252852,36,51
143,6149,Chapleau / du Mont-Royal,45.53867,-73.56936,29,47
144,6150,Messier / du Mont-Royal,45.53711414,-73.5710031,35,47
145,6151,Parthenais / du Mont-Royal,45.53646917409483,-73.57146307826042,40,47
146,6152,Chabot / du Mont-Royal,45.53418509490266,-73.57358872890472,38,48
147,6153,Cartier / Marie-Anne,45.532674,-73.571776,40,47
148,6154,Marquette / du Mont-Royal,45.53229,-73.57544,47,50
149,6155,Garnier / du Mont-Royal,45.53092,-73.57674,47,50
150,6156,Marie-Anne / de la Roche,45.52775814390426,-73.57618510723114,51,48
151,6157,de Brébeuf / du Mont-Royal,45.52940777616881,-73.57815384864807,47,49
152,6158,Gilford / de Brébeuf,45.53081622781595,-73.58162596821785,48,51
153,6159,Ann / Wellington,45.49452705626516,-73.55675250291823,27,16
154,6160,Garnier / St-Joseph,45.5329774553515,-73.58122229576111,46,54
155,6161,Cartier / St-Joseph,45.53582823686429,-73.57869029045105,37,56
156,6162,Legendre / Henri-Julien,45.54612387708119,-73.64664673805237,44,32
157,6163,Marquette / Laurier,45.53543,-73.5822,40,52
158,6164,de Lanaudière / Laurier,45.5333136054992,-73.58373686671257,43,54
159,6165,Laurier / de Brébeuf,45.53251395631143,-73.58481109142303,44,54
160,6166,Gerry-Boulet / St-Grégoire,45.5337352275406,-73.589306473732,40,61
161,6167,Marquette / St-Grégoire,45.53703,-73.58584,39,59
162,6168,Marmier / St-Denis,45.530871318676006,-73.59834551811218,43,67
163,6169,Boyer / du Mont-Royal,45.527432126380575,-73.57991673052311,50,50
164,6170,de Mentana / Laurier,45.53045006508681,-73.58763813972473,50,59
165,6171,Wolfe / Robin,45.51958082831579,-73.5601159930229,40,27
166,6173,Berri / Cherrier,45.51908844137639,-73.56950908899307,54,48
167,6174,Roy / St-Denis,45.51908,-73.5727,49,47
168,6175,St-Christophe / Cherrier,45.52027785033668,-73.5682162642479,49,47
169,6176,de Mentana / Rachel,45.52496323980324,-73.57555881142616,50,48
170,6177,St-Hubert / Duluth,45.52242565278864,-73.57418417930603,49,49
171,6178,Rivard / Rachel,45.5222776,-73.5775906,52,48
172,6179,Duluth / St-Denis,45.52060423232697,-73.57598394155502,50,49
173,6180,St-Dominique / René-Lévesque,45.5094183667176,-73.56135785579681,27,25
174,6181,Clark / Rachel,45.5173538,-73.58212888,40,66
175,6182,de Bullion / du Mont-Royal,45.52175120848515,-73.58526840806007,51,59
176,6183,Laval / du Mont-Royal,45.5223645775784,-73.58414590358734,54,59
177,6184,Métro Mont-Royal (Rivard / du Mont-Royal),45.524673,-73.58255,54,51
178,6185,des Érables / Bélanger,45.54912085535069,-73.60087350010872,19,56
179,6186,St-Hubert / Laurier,45.52931012171625,-73.58865737915039,51,59
180,6187,Resther / du Mont-Royal,45.52562819123256,-73.58177483081818,52,49
181,6188,de Mentana / Marie-Anne,45.52602656522141,-73.57785880565643,52,48
182,6189,Chabot / Everett,45.55072306022627,-73.60957056283951,10,54
183,6190,Pontiac / Gilford,45.527009334270645,-73.58576595783234,53,57
184,6191,St-Zotique / Clark,45.531401,-73.612674,34,60
185,6192,Berri / St-Grégoire,45.52996959525513,-73.5919028520584,50,69
186,6193,de l'Esplanade / Fairmount,45.521495,-73.596758,37,72
187,6194,Métro Atwater (Atwater / Ste-Catherine),45.48947622882084,-73.58456566929817,24,61
188,6195,de Bullion / St-Joseph,45.5240365462478,-73.59014332294464,52,69
189,6196,Villeneuve / St-Laurent,45.52134173413233,-73.58941912651062,47,62
190,6197,de Bordeaux / Masson,45.53898439552301,-73.5824453830719,31,55
191,6198,Hélène-Baillargeon / St-Denis,45.52974,-73.59527,47,70
192,6199,St-Viateur / St-Laurent,45.52593073022709,-73.59883904457092,45,74
193,6200,Maguire / St-Laurent,45.52462848559264,-73.5958108305931,48,66
194,6201,Villeneuve / de l'Hôtel-de-Ville,45.52354419830203,-73.58733236789703,56,61
195,6202,Ste-Famille / Sherbrooke,45.51007154847701,-73.57075229287146,53,42
196,6203,Aylmer / Sherbrooke,45.50658668914343,-73.57329905033112,50,54
197,6204,Milton / Durocher,45.508140959417744,-73.57492983341217,47,54
198,6205,Milton / du Parc,45.50936142835129,-73.57386365532875,48,48
199,6206,Prince-Arthur / du Parc,45.51059,-73.57547,46,49
200,6207,Ste-Famille / des Pins,45.51283174510449,-73.57688784599304,43,53
201,6208,Hutchison / des Pins,45.51069,-73.57805,37,51
202,6209,Milton / Clark,45.51254135285248,-73.57067719101906,53,51
203,6210,Métro Sauvé (Berri / Sauvé),45.55069206841976,-73.65636706352234,4,32
204,6211,Roy / St-Laurent,45.515616239398405,-73.57580825686453,48,50
205,6212,Duluth / de l'Esplanade,45.51509198406273,-73.58114182949066,41,61
206,6213,Duluth / St-Laurent,45.51687640567004,-73.57946008443832,46,58
207,6214,Square St-Louis (du Square St-Louis / Laval),45.516090801970655,-73.5701286792755,55,48
208,6215,Metcalfe / St-Catherine,45.50083231626815,-73.57245951890945,50,54
209,6216,Parc Jeanne Mance (monument sir George-Etienne Cartier),45.51483985896893,-73.58477890491486,34,72
210,6217,Vallières / St-Laurent,45.51896722332005,-73.5836161673069,42,67
211,6218,Prince-Arthur / St-Urbain,45.51258740220925,-73.57373893260956,49,48
212,6219,de l'Hôtel-de-Ville / Roy,45.51740076184449,-73.57460528612137,50,47
213,6220,Laval / Duluth,45.519216236873945,-73.57718020677567,48,50
214,6221,du Mont-Royal / Clark,45.51941,-73.58685,42,69
215,6222,de l'Esplanade / du Mont-Royal,45.51825290855221,-73.5883381962776,33,69
216,6223,du Mont-Royal / du Parc,45.517,-73.589,28,69
217,6224,Villeneuve / du Parc,45.51829,-73.59235,30,72
218,6225,Villeneuve / St-Urbain,45.520188,-73.590559,41,66
219,6226,Hôpital Maisonneuve-Rosemont (Rosemont / Chatelain),45.575707,-73.561562,3,40
220,6227,de l'Esplanade / Laurier,45.52103885732127,-73.59490692615509,36,69
221,6228,Waverly / Van Horne,45.527363,-73.607723,38,64
222,6229,Coloniale / du Mont-Royal,45.5211613236904,-73.5856157541275,49,60
223,6230,Waverly / St-Viateur,45.5238561444472,-73.60012650489807,38,75
224,6231,Jeanne-Mance / St-Viateur,45.523026476635074,-73.60184043645859,38,75
225,6232,Durocher / Van Horne,45.524265806034656,-73.61127376556396,29,70
226,6233,Bernard / Jeanne-Mance,45.5242864769531,-73.60497325658798,39,74
227,6234,de l'Arcade / Clark,45.527410360532215,-73.60393524169922,39,66
228,6235,St-Dominique / St-Viateur,45.52655700191558,-73.5982757806778,45,74
229,6236,Laurier / de Bordeaux,45.5376492623372,-73.57978463172913,32,56
230,6237,Gilford / de Lanaudière,45.53200800170645,-73.58044445514679,46,54
231,6240,Parc Kent (de Kent / Hudson),45.5057209331225,-73.62945914268494,7,79
232,6241,Querbes / Laurier,45.51753998795678,-73.59783187508583,23,78
233,6243,Bloomfield / Bernard,45.52068774,-73.6084279,23,76
234,6245,Bloomfield / Van Horne,45.5225858,-73.61265779,24,71
235,6246,Métro Outremont (Wiseman / Van Horne),45.52027053865367,-73.61484915018082,17,72
236,6247,St-Dominique / St-Zotique,45.53226461018495,-73.6110632121563,36,67
237,6248,St-Dominique / Rachel,45.518593,-73.581566,44,66
238,6249,Bélanger / St-Denis,45.53696,-73.61199,35,61
239,6250,Marché Jean-Talon (Henri-Julien / Jean-Talon),45.53678525128436,-73.6148879583925,31,59
240,6251,Dante / de Gaspé,45.53441493337628,-73.6123164743185,34,62
241,6252,Mozart / St-Laurent,45.53318,-73.61544,34,60
242,6253,Métro Jean-Talon (de Chateaubriand / Jean-Talon),45.540138286478616,-73.61402839422226,36,59
243,6254,Boyer / Bélanger,45.54006,-73.60897,34,63
244,6255,Boyer / St-Zotique,45.53848,-73.60556,34,61
245,6257,de St-Vallier / St-Zotique,45.53626117851967,-73.60754549503326,38,59
246,6258,Parc Père-Marquette (Chambord / Rosemont),45.53708783301333,-73.59321847558022,31,67
247,6259,Dandurand / de Lorimier,45.540881,-73.584157,29,60
248,6260,Cartier / Dandurand,45.53923559055867,-73.58594566583633,33,61
249,6261,Louis-Hémon / Rosemont,45.54459855947176,-73.58822286128998,23,67
250,6262,de la Roche /  de Bellechasse,45.53715922533132,-73.59747648239136,30,70
251,6263,de Hampton / de Monkland,45.47117930747152,-73.6270022392273,8,70
252,6264,Chabot / de Bellechasse,45.5425697477813,-73.59214425086974,26,66
253,6265,Parthenais / Laurier,45.539258526059406,-73.5774591565132,32,53
254,6266,Louis-Hébert / de Bellechasse,45.546661109634606,-73.58868420124054,23,65
255,6267,Chabot / Beaubien,45.54437554639807,-73.59564453363419,27,63
256,6268,Chambord / Beaubien,45.539932183126695,-73.59934329986572,24,62
257,6269,Wurtele / de Rouen,45.5376278134876,-73.5533943772316,20,22
258,6270,Fabre / St-Zotique,45.54345172630376,-73.60101029276848,26,60
259,6271,St-Jean-Baptiste / Notre-Dame,45.640002860465096,-73.49011301994324,1,17
260,6272,de Bordeaux / St-Zotique,45.546539011777845,-73.59866470098495,21,59
261,6273,Cartier / Bélanger,45.546797412794085,-73.60266387462616,23,57
262,6274,de la Roche / St-Joseph,45.531164,-73.583695,51,53
263,6275,Chambord / Jean-Talon,45.54484558108033,-73.61053615808486,27,59
264,6276,de la Roche / Bélanger,45.54166959576632,-73.60760450363159,30,62
265,6277,Louis-Hébert / Beaubien,45.5481863712796,-73.592010140419,22,60
266,6278,Louis-Hébert / St-Zotique,45.55001,-73.59576,20,59
267,6279,Louis-Hébert / Bélanger,45.55158518908433,-73.59916493296623,17,54
268,6280,Casgrain / Laurier,45.52437479806464,-73.5918103158474,48,69
269,6281,Resther / St-Joseph,45.52769780849099,-73.58625277876854,49,56
270,6301,Parc Outremont (Bloomfield / Elmwood),45.518309446368,-73.60328614711761,20,79
271,6302,Stuart / St-Viateur,45.516078703024085,-73.60779762268066,15,82
272,6303,Pratt / Van Horne,45.51414486304299,-73.6203020811081,13,92
273,6304,Rockland / Lajoie,45.515617,-73.614991,14,88
274,6305,Davaar / de la Côte-Ste-Catherine,45.514379,-73.610871,12,93
275,6306,Métro Édouard-Montpetit (du Mont-Royal / Vincent-d'Indy),45.510086,-73.611429,7,124
276,6307,Laval / Rachel,45.52017845247635,-73.57942387461662,48,57
277,6309,4e avenue / de Verdun,45.4568844514464,-73.57260704040527,12,17
278,6310,de Soissons / de Darlington,45.50687644639119,-73.62359181046486,8,95
279,6311,Drolet / St-Zotique,45.53488214147823,-73.60941231250763,36,60
280,6312,de Kent / de la Côte-des-Neiges,45.50144933057703,-73.63305062055588,6,76
281,6313,Palm / St-Remi,45.470303,-73.589848,19,16
282,6314,de Lanaudière / Marie-Anne,45.52932643090091,-73.57480645179749,48,49
283,6315,Métro Côte-des-Neiges (Jean-Brillant / de la Côte-des-Neiges),45.49626477461565,-73.62154394388199,5,109
284,6316,Swail / Decelles,45.49705494399436,-73.61865252256392,4,116
285,6321,Gary-Carter / St-Laurent,45.53589982664126,-73.62244248390198,28,59
286,6322,St-Dominique / Gounod,45.53873794947064,-73.62802147865295,23,54
287,6323,Guizot / St-Laurent,45.53966322230556,-73.63447487354279,15,49
288,6324,de Liège / Lajeunesse,45.54560354555274,-73.63474041223526,16,44
289,6327,Drolet / Faillon,45.53926979810152,-73.6208787560463,28,60
290,6328,De Gaspé / Villeray,45.53893805473212,-73.62429320812224,27,57
291,6329,Drolet / Gounod,45.54095134225734,-73.62637460231781,24,57
292,6330,de Gaspé / Jarry,45.540780049798,-73.63040059804916,17,53
293,6331,Guizot / St-Denis,45.543423548290185,-73.63246187567711,17,49
294,6332,de Gaspé / de Liège,45.54248521237199,-73.63634169101715,14,44
295,6333,Leman / de Chateaubriand,45.547218,-73.631103,17,47
296,6334,Métro Jarry (Lajeunesse / Jarry),45.54371190262865,-73.62828433513641,22,56
297,6335,du Rosaire / St-Hubert,45.54481928225348,-73.6215104162693,22,58
298,6336,Faillon / St-Hubert,45.54297175887712,-73.61793905496597,27,58
299,6338,de Chateaubriand / Jarry,45.54595481682399,-73.62699151039122,20,52
300,6339,Harvard / de Monkland,45.474565185029945,-73.62403571605682,10,74
301,6340,de la Roche / Everett,45.544867,-73.614841,24,58
302,6341,Regina / de Verdun,45.467369,-73.570769,7,14
303,6343,Marquette / Villeray,45.55068361610596,-73.61529305577278,11,55
304,6344,St-Dominique / Jean-Talon,45.53524809921431,-73.61756354570389,30,59
305,6345,Louis-Hémon / Villeray,45.55496126357668,-73.61073732376097,12,54
306,6346,Nicolet / Sherbrooke,45.54969542033443,-73.55464696884155,18,47
307,6347,Métro St-Michel (Shaughnessy / St-Michel),45.559199,-73.599658,8,50
308,6349,Ryde / Charlevoix,45.4757434,-73.5646007,9,17
309,6350,Island / Centre,45.48149081388884,-73.56475353240967,18,17
310,6354,Marcil / Sherbrooke,45.471743,-73.613924,10,60
311,6355,Ontario / Sicard,45.55626186680846,-73.53744059801102,10,19
312,6356,de Monkland / Girouard,45.47710675189806,-73.6214379966259,9,85
313,6357,13e avenue / St-Zotique,45.557487317400046,-73.5887485742569,12,58
314,6358,1ère  avenue / St-Zotique,45.551937362101,-73.59392791986465,17,59
315,6359,Ste-Catherine / St-Laurent,45.50981336049594,-73.5638952255249,58,27
316,6360,8e avenue / Beaubien,45.553215,-73.58752,14,60
317,6361,Molson / Beaubien,45.54968589617967,-73.59115451574326,21,63
318,6362,1ère avenue / Rosemont,45.54779995287998,-73.58486741781235,20,68
319,6363,de la Côte St-Antoine / Royal,45.46892698487744,-73.6198702454567,10,66
320,6364,de Chambly / Rachel,45.54991069359101,-73.55826258659361,15,49
321,6366,Wilderton  / Van Horne,45.51014162409143,-73.6247518658638,7,97
322,6367,3e avenue / Dandurand,45.54729491851639,-73.57899874448776,15,58
323,6368,10e avenue / Masson,45.55030553030546,-73.57335269451141,15,55
324,6369,U. Concordia - Campus Loyola (Sherbrooke / West Broadway),45.45750908083069,-73.6394852399826,1,56
325,6370,d'Orléans / Masson,45.557192,-73.569847,9,53
326,6371,4e avenue / Masson,45.546978,-73.575515,16,56
327,6372,1ère avenue / Masson,45.5451997,-73.57645065,23,54
328,6373,7e avenue / St-Joseph Rosemont,45.547226645250745,-73.56986984610558,20,47
329,6374,15e avenue / Masson,45.55389801568004,-73.5713866353035,10,54
330,6375,Métro Place St-Henri (St-Ferdinand / St-Jacques),45.477249,-73.587238,13,18
331,6376,de Chambly / St-Joseph,45.552842358447656,-73.56529533863068,11,48
332,6377,Grand Trunk / Hibernia,45.47968,-73.56385,14,15
333,6379,de l'Église / Bannantyne,45.4632535358533,-73.57587933540344,11,16
334,6380,Parc J.-Arthur-Champagne (de Chambly / du Mont-Royal),45.551584,-73.561916,16,48
335,6381,Omer-Lavallée / du Midway,45.5457759528664,-73.56217458844185,17,47
336,6383,Bourbonnière / du Mont-Royal,45.55357073967113,-73.56049418449402,13,48
337,6384,Darling / Sherbrooke,45.54545890380305,-73.55666935443878,21,46
338,6385,de Bordeaux / Gilford,45.53611005443118,-73.5762870311737,35,53
339,6386,Métro Préfontaine (Moreau / Hochelaga),45.54178033474308,-73.55571448802948,17,38
340,6387,Métro Joliette  (Joliette / Hochelaga),45.54690718297082,-73.5515570640564,18,25
341,6388,d'Orléans / Hochelaga,45.55076798270114,-73.54942739009857,15,24
342,6389,Boyer / Jean-Talon,45.54158631132448,-73.61248075962067,30,61
343,6391,Aylwin / Ontario,45.54428417385149,-73.54533970355988,14,21
344,6393,Dézéry / Ontario,45.54111008519643,-73.54754984378815,13,26
345,6394,Valois / Ontario,45.54740496161695,-73.54467451572418,13,21
346,6395,Métro Viau (Pierre-de-Coubertin / Viau),45.561782815423854,-73.54661107063293,6,32
347,6396,Métro Pie-IX (Pierre-de-Coubertin / Pie-IX),45.55421375524564,-73.55155974626541,14,28
348,6397,Marché Maisonneuve,45.55321884238814,-73.53978216648102,13,21
349,6398,Desjardins / Ontario,45.5511918874866,-73.54087248444557,13,20
350,6401,des Seigneurs / Notre-Dame,45.48772278774177,-73.5690826177597,28,18
351,6402,Ste-Émilie / Sir-Georges-Etienne-Cartier,45.47266800851548,-73.585389778018,7,17
352,6403,Georges-Vanier / Notre-Dame,45.48504797982277,-73.5719633102417,27,19
353,6404,Quesnel / Vinet,45.485889,-73.577514,29,20
354,6405,Duvernay / Charlevoix,45.4820980397155,-73.57487618923187,22,22
355,6406,Marché Atwater,45.48020822800015,-73.57759863138199,18,18
356,6407,Charlevoix / Lionel-Groulx,45.48392802,-73.57731164,23,21
357,6408,Métro Georges-Vanier (St-Antoine / Canning),45.4891,-73.57656,33,19
358,6409,Lionel-Groulx / George-Vanier,45.48621939184824,-73.5737469792366,31,16
359,6410,Métro Crémazie (Crémazie / Lajeunesse),45.54640752148169,-73.63842844963074,15,35
360,6411,Clark / Prince-Arthur,45.5133025720765,-73.57296109199524,53,48
361,6412,Complexe sportif Claude-Robillard,45.553262,-73.638615,7,35
362,6413,Union / Cathcart,45.50355184389659,-73.56875538825989,56,42
363,6414,Parc St-Henri (Laporte / Guay),45.48013378575666,-73.58590811491013,16,21
364,6415,de Melrose / Sherbrooke,45.46981978744856,-73.61696138978003,8,66
365,6416,Notre-Dame-de-Grâce / Décarie,45.47735333523628,-73.61537218093872,9,93
366,6417,de la Salle / Hochelaga,45.55415230370231,-73.54749351739883,13,24
367,6418,Paré / Mountain Sights,45.49810026070624,-73.65294188261032,2,50
368,6419,Beaucourt / de la Côte-Ste-Catherine,45.491513,-73.633649,7,67
369,6420,Métro Snowdon (de Westbury / Queen-Mary),45.48538473242346,-73.62814217805862,5,75
370,6421,Cartier / Rosemont,45.54124722370603,-73.59104454517365,24,67
371,6422,Fleury / Lajeunesse,45.55357892880519,-73.66208285093306,4,30
372,6423,Hôpital général juif (de la Côte Ste-Catherine / Légaré),45.496302,-73.629822,7,91
373,6425,Métro de l'Église (Ross / de l'Église),45.462846046287325,-73.56592163443565,9,14
374,6426,Métro Verdun (Willibrord / de Verdun),45.459487694540734,-73.57209205627441,14,16
375,6427,Métro Lasalle (de Rushbrooke / Caisse),45.47069642604657,-73.56542240828276,7,15
376,6428,Berlioz / de l'Île des Soeurs,45.45998577640931,-73.54395568370819,2,14
377,6429,Place du Commerce,45.46714,-73.54259,2,12
378,6432,de Maisonneuve / Greene,45.48697062,-73.58929306,18,58
379,6433,Hillside / Ste-Catherine,45.48282602624293,-73.59084337949753,15,52
380,6434,Victoria / de Maisonneuve,45.47742856483265,-73.60016942024231,7,51
381,6435,Victoria Hall,45.48129146961133,-73.6003303527832,7,52
382,6436,Argyle / Sherbrooke,45.48580087370364,-73.5957974300254,7,58
383,6501,Metro Jean-Drapeau (Chemin Macdonald),45.512800575819625,-73.5311159491539,2,8
384,6502,Casino de Montréal,45.5063732,-73.52457672,2,3
385,6503,Métro Parc  (Ogilvy / Hutchison),45.53035130173597,-73.6243924498558,18,60
386,6504,La Ronde,45.52156536710626,-73.53533238172531,2,13
387,6700,de la Salle / Ste-Catherine,45.54996328646854,-73.53443384170531,8,14
388,6701,Stanley / Sherbrooke,45.50104110864491,-73.57717752456664,44,61
389,6702,Métro Assomption (Chauveau / de l'Assomption),45.569789,-73.548081,2,27
390,6703,Jardin Botanique (Pie-IX / Sherbrooke),45.55500446099039,-73.55535507202148,12,45
391,6704,19e avenue / St-Zotique,45.561594,-73.585643,7,54
392,6705,5e avenue / Bannantyne,45.456365,-73.57614,12,16
393,6706,Beatty / de Verdun,45.450729976972944,-73.5725748538971,10,17
394,6707,Métro Jolicoeur (Drake / de Sève),45.45608545783109,-73.58193710446358,10,19
395,6709,Le Caron / Marc-Sauvalle ,45.461685,-73.584039,7,21
396,6710,Chambord / Fleury,45.55982811984724,-73.65832507610321,5,32
397,6711,Alexandra / Waverly,45.531938,-73.617842,31,61
398,6712,LaSalle / Crawford,45.43791380065227,-73.58274042606354,1,19
399,6713,29e avenue / St-Zotique,45.56776565172907,-73.57968807220459,5,53
400,6715,Natatorium (LaSalle / Rolland),45.44454701497536,-73.57509076595306,6,17
401,6716,Francis / Fleury,45.56387237463668,-73.6555677652359,4,30
402,6717,de Kent / Victoria,45.49456403292622,-73.63870203495026,6,61
403,6718,Grand Boulevard / Sherbrooke,45.466569,-73.623295,8,64
404,6719,Park Row O / Sherbrooke,45.46072936353252,-73.63407254219055,3,61
405,6720,Ontario / Viau,45.5594818,-73.535496,5,18
406,6721,Métro Cadillac (de Cadillac / Sherbrooke),45.5769632283486,-73.54683637619019,4,31
407,6722,du Quesne / Pierre-de-Coubertin,45.57498439946887,-73.53884875774384,3,26
408,6723,26e avenue / Beaubien,45.564944,-73.577639,7,57
409,6724,Léa-Roback / Sir-Georges-Etienne-Cartier,45.47166862589184,-73.582643866539,6,15
410,6725,Métro Monk (Allard / Beaulieu),45.45085122,-73.5940272,4,25
411,6726,Hamel / Sauvé,45.56076192837154,-73.6505614221096,3,32
412,6727,de la Sucrerie / Centre,45.48408128505464,-73.56091797351837,18,17
413,6728,d'Outremont / Ogilvy,45.52687028194893,-73.62672328948975,8,57
414,6729,St-André / Ste-Catherine,45.516426545782224,-73.5581123828888,40,27
415,6730,35e avenue / Beaubien,45.570081,-73.573047,6,52
416,6731,28e avenue / Rosemont,45.564353,-73.571244,7,59
417,6732,Fortune / Wellington,45.477923,-73.559038,10,16
418,6733,Villeray / de Normanville,45.547172039327485,-73.6185210943222,16,57
419,6734,Lajeunesse / Villeray,45.54211889,-73.6225471,25,61
420,6735,Villeray / St-Michel,45.56105928295798,-73.6039674282074,6,49
421,6736,Métro Henri-Bourassa (Henri-Bourassa / Millen),45.55675103297278,-73.66716161370277,2,21
422,6737,Jacques-Casault / Christophe-Colomb,45.552123,-73.630103,9,43
423,6738,Union / René-Lévesque,45.50235036136798,-73.56658279895781,55,41
424,6739,Pierre-de-Coubertin / Langelier,45.580314546424674,-73.5353136062622,4,30
425,6741,Canning / Notre-Dame,45.48631864401023,-73.5702332854271,29,18
426,6742,St-Patrick / Briand,45.46339729163665,-73.59643578529356,4,19
427,6743,St-Marc / Sherbrooke,45.494514,-73.583368,24,62
428,6744,Hamilton / Jolicoeur,45.456355,-73.597557,4,25
429,6745,de l'Épée / Jean-Talon,45.52797966680089,-73.62388283014297,17,58
430,6746,Métro Acadie (de l'Acadie / Beaumont),45.52357479400008,-73.62344294786453,10,58
431,6747,Waverly / St-Zotique,45.53050525974957,-73.61470833420753,29,59
432,6748,Young / Wellington,45.49282530947313,-73.55797827243805,25,13
433,6749,St-Jacques / St-Laurent,45.50642115207643,-73.55646550655365,41,18
434,6750,de Mentana / Gilford,45.52872356043453,-73.58385890722275,47,51
435,6752,Hutchison / Beaubien,45.52605851018324,-73.61296892166138,29,64
436,6753,Centre ÉPIC (St-Zotique / 40e avenue),45.57414703721992,-73.57462137937546,6,46
437,6754,Eadie / Dubois,45.45759682462104,-73.59052859581423,5,22
438,6901,Gare d'autocars de Montréal (Berri / Ontario),45.51689676614314,-73.5639488697052,1,26
439,6902,Montcalm / Ontario,45.521081043206834,-73.56227517127991,42,28
440,6903,St-Dominique / Napoléon,45.51666442219882,-73.57722043991089,47,55
441,6904,Fabre / Beaubien,45.5420595590383,-73.59787344932556,27,63
442,6905,Parc Rosemont (Dandurand / d'Iberville),45.544377,-73.581018,26,59
443,6906,Métro Rosemont (de St-Vallier / Rosemont),45.5319548635849,-73.59816044569016,40,67
444,6907,Boyer / Rosemont,45.534136,-73.595478,41,70
445,6908,de Bellechasse / de St-Vallier,45.53341043363302,-73.60112428665161,38,67
446,6910,Boyer / Beaubien,45.537041,-73.602026,32,65
447,6912,Métro Beaubien (de Chateaubriand / Beaubien),45.5353599615622,-73.60363483428955,38,66
448,6913,Drolet / Beaubien,45.533348,-73.605834,41,69
449,6915,Alma / Beaubien,45.53243586450861,-73.60665500164032,40,63
450,6916,Parc du Pélican (2e avenue / St-Joseph),45.544513,-73.571564,19,52
451,6917,Basile-Routhier / Chabanel,45.54986843142164,-73.64765658974648,5,32
452,6918,Garnier / des Carrières,45.53755266430292,-73.58993947505951,29,66
453,6919,Bibliothèque de Rosemont (9e avenue / Rosemont),45.55201648333515,-73.58185529708862,16,68
454,6921,Augustin-Cantin / Shearer,45.48401829,-73.5634366,19,19
455,6923,Marquette / Jean-Talon,45.54740777921938,-73.60766887664795,22,57
456,6924,de Bordeaux / Jean-Talon,45.54975479298636,-73.60556602478027,18,55
457,6925,des Écores / Jean-Talon,45.55236372328009,-73.60286772251129,18,52
458,6926,Marie-Anne / St-Hubert,45.5246829812827,-73.5788968205452,53,51
459,6927,Édouard-Montpetit / de Stirling,45.50723,-73.615085,8,111
460,6928,Jean-Brillant / McKenna,45.49876714523858,-73.61886978149414,8,117
461,6929,St-André / St-Grégoire,45.53147464147482,-73.59242051839828,46,64
462,6930,Cité des Arts du Cirque (Paul Boutet / des Regrattiers),45.55984236120471,-73.61544728279114,5,49
463,7001,Ball / Querbes,45.531177514650885,-73.6321359872818,7,53
464,7002,Meunier / Fleury,45.54485857398681,-73.66681426763535,2,31
465,7003,Métro Guy-Concordia (Guy / St-Catherine),45.49498148219463,-73.57773274183273,37,50
466,7004,Émile-Journault / de Chateaubriand,45.54983321292286,-73.64063255488873,9,34
467,7005,Marquette / Fleury,45.56735205736566,-73.65378744900227,4,33
468,7006,Clark / Fleury,45.54764847825576,-73.6655656993389,3,28
469,7007,Kirkfield / de Chambois,45.51293324107222,-73.63389015197754,4,52
470,7008,Rousselot / Jarry,45.55076907833167,-73.62091094255447,21,51
471,7009,Place Émilie-Gamelin (de Maisonneuve / Berri),45.51569016499682,-73.56096625328064,41,31
472,7010,Coolbrook / Queen-Mary,45.48285235405571,-73.63034427165985,5,69
473,7011,Panet / de Maisonneuve,45.52057363501344,-73.55614364147186,30,26
474,7012,St-Hubert / René-Lévesque,45.51433537033962,-73.55646349489689,37,26
475,7013,Benny / Sherbrooke,45.4648769981855,-73.62659722566605,7,62
476,7014,Métro Université de Montréal (Édouard-Montpetit / Louis-Collin),45.50427796704115,-73.61797660589218,8,108
477,7016,Métro Langelier (Langelier / Sherbrooke),45.58284663189181,-73.54247644543648,5,35
478,7017,Bennett / Ste-Catherine,45.55305326642512,-73.53242754936218,8,17
479,7018,Valois / Ste-Catherine,45.54522973039872,-73.53725016117096,9,18
480,7019,Casgrain / St-Viateur,45.52751292628879,-73.59879076480864,42,71
481,7020,St-Germain / Hochelaga,45.5436987529516,-73.55367332696915,17,27
482,7021,Dollard / Van Horne,45.51915286772737,-73.61646920442581,14,72
483,7022,Durocher / Bernard,45.52222528598142,-73.60668718814848,32,79
484,7023,CHSLD St-Michel (Jarry / 8e avenue),45.56169026904608,-73.61051201820374,5,50
485,7024,Berri / St-Joseph,45.52723106564012,-73.58672618865965,53,56
486,7025,St-Dominique / Bernard,45.52793332015246,-73.60122251338906,43,71
487,7026,Maguire / Henri-Julien,45.527041096087785,-73.59347056655677,50,66
488,7027,Terrasse Guindon / Fullum,45.537114135456825,-73.56913894414902,31,49
489,7028,de Gaspé / St-Viateur,45.52774827884841,-73.59743893146515,45,72
490,7029,Cartier / Masson,45.5380207402854,-73.58352363109587,31,57
491,7030,de Bordeaux / Marie-Anne,45.53340912723174,-73.57065707445145,39,49
492,7031,Berri / Rachel,45.52271891082773,-73.5772043466568,53,48
493,7032,Drolet / Laurier,45.52625187609252,-73.58975838928018,54,64
494,7033,Aylmer / Prince-Arthur,45.50856686947439,-73.57769787311554,42,54
495,7034,Atwater / Greene,45.48049514330605,-73.57782661914825,18,18
496,7035,Fullum / Gilford,45.53922374455291,-73.57383679656778,31,51
497,7036,Labadie / du Parc,45.5198946757576,-73.59682738780975,34,74
498,7037,Prince-Arthur / Ste-Famille,45.5116382139746,-73.57463479042053,55,51
499,7038,Guilbault / Clark,45.514107949601446,-73.57523024082184,47,53
500,7039,du Mont-Royal / Augustin-Frigon,45.543763151117474,-73.56772005558014,21,46
501,7040,St-Urbain / Beaubien,45.52951033828327,-73.61067965626717,34,62
502,7041,de Maisonneuve / Peel,45.50095054783712,-73.57457846403122,6,64
503,7042,Alexandra / Jean-Talon,45.53233064590805,-73.62018674612045,26,59
504,7043,Ernest-Gendreau / du Mont-Royal,45.549713734001415,-73.56384828686714,17,48
505,7044,Hôpital Santa Cabrini (St-Zotique / Jeanne-Jugan),45.5793249650848,-73.5705041885376,5,43
506,7045,Casgrain / Mozart,45.53472725603326,-73.6147928237915,34,58
507,7046,de Maisonneuve / Mansfield (nord),45.50238607958335,-73.57333794236183,47,54
508,7047,Ottawa / Peel,45.49390894768301,-73.55950713157654,31,15
509,7048,Métro Angrignon (Lamont /  des Trinitaires),45.44704365278581,-73.6021783483011,3,22
510,7049,William / Guy,45.48986545713166,-73.56473073363304,6,16
511,7050,Ottawa / William,45.48972725318433,-73.56406286358833,26,16
512,7051,Jogues / Allard,45.450020323797766,-73.60030621290207,3,26
513,7052,Shearer / Centre,45.483005619293046,-73.56218665838242,17,15
514,7053,Ropery / Augustin-Cantin,45.48091406771754,-73.56846034526825,22,15
515,7054,de la Côte St-Paul / St-Ambroise,45.46766565386597,-73.59391784324544,3,16
516,7055,Rose-de-Lima / Notre-Dame,45.47995026556018,-73.5805356502533,19,18
517,7056,Bibliothèque de Verdun (Brown / Bannantyne),45.44826204820947,-73.57785612344742,7,18
518,7057,2e avenue / Wellington,45.45789352611307,-73.56752824096475,11,15
519,7058,Gordon / Wellington,45.46107799010839,-73.56730699539183,10,16
520,7059,Argyle / de Verdun,45.45301583620112,-73.57191503047943,11,16
521,7060,de l'Église / de Verdun,45.46300108733155,-73.57156895217486,11,16
522,7061,Lajeunesse / de Castelnau,45.54039620809999,-73.61681789159775,32,62
523,7062,William / Robert-Bourassa,45.49716534003792,-73.55933010578154,36,12
524,7063,Drolet / Jarry,45.54195463236575,-73.62994194030762,17,51
525,7064,Clark / de Liège,45.539983846015616,-73.6381347477436,12,42
526,7065,de Lanaudière / Bélanger,45.54365085053057,-73.60565051436424,25,62
527,7066,St-Urbain / de la Gauchetière,45.50707812811467,-73.56139540672302,51,28
528,7067,City Councillors / du President-Kennedy,45.50625103256782,-73.57139065861702,54,50
529,7068,Basin / Richmond,45.48753098712153,-73.56507003307343,25,15
530,7069,Jeanne-Mance / René-Lévesque,45.5063713381299,-73.5642009973526,57,35
531,7070,Bourgeoys / Favard,45.47993042065731,-73.55592101812363,8,16
532,7071,St-Mathieu / Sherbrooke,45.49578910481176,-73.58259558677672,28,66
533,7072,Beaudry / Sherbrooke,45.52303493310712,-73.56539458036421,45,40
534,7073,Logan / de Champlain,45.5231943285584,-73.55584256350994,35,27
535,7074,St-André / Robin,45.5181280865132,-73.56185138225555,44,29
536,7075,CIUSSS (du Trianon / Pierre-de-Coubertin),45.58753125134183,-73.5319072008133,4,30
537,7076,Tupper / du Fort,45.49122961531575,-73.58078241348267,32,51
538,7077,Jean Langlois / Fullum,45.526499983000186,-73.54575277422555,13,18
539,7078,Hochelaga / Chapleau,45.53445294687473,-73.55965197086334,31,33
540,7079,Notre-Dame / Gauvin,45.50010529681542,-73.56019914150238,43,31
541,7080,du President-Kennedy / Union,45.50501114975704,-73.57202768325806,52,63
542,7081,St-Denis / de Maisonneuve,45.514384629068346,-73.56173202395439,45,34
543,7082,Métro Lionel-Groulx (Atwater / Lionel-Groulx),45.4829412691004,-73.57974171638489,24,20
544,7083,Parc de Bullion (de Bullion / Prince-Arthur),45.515604257816335,-73.57213497161865,55,48
545,7084,McTavish / Sherbrooke,45.502812816508936,-73.57602417469025,45,50
546,7085,de la Grande-Allée / Ste-Catherine,45.63137963655471,-73.50685738027096,1,11
547,7086,Parc de l'Hôtel-de-Ville (Dubé / Laurendeau),45.63065034476232,-73.49499464035034,1,8
548,7087,St-Jean-Baptiste / René-Lévesque,45.64155705644063,-73.50037515163422,1,12
549,7088,du Tricentenaire / de Montigny,45.65140583915357,-73.50041270256041,1,11
550,7089,du Tricentenaire / Prince-Albert,45.64954588445726,-73.49191546440125,1,13
551,7090,de St-Firmin / Fleury,45.57065664170425,-73.65184217691422,4,35
552,7091,Fleury / André-Jobin,45.57600034155425,-73.64676475524902,3,39
553,7092,Gare Bois-de-Boulogne,45.53972553109637,-73.67716491222382,2,27
554,7093,Laforest / Dudemaine,45.539806548176045,-73.6872661113739,2,25
555,7094,Alfred Laliberté / de Poutrincourt,45.53308032414161,-73.6945965886116,1,26
556,7095,Chabanel / de l'Esplanade,45.54068551727877,-73.65337640047073,2,33
557,7096,Chabanel / du Parc,45.53830765459552,-73.6548838019371,1,46
558,7097,Bélanger / des Galeries d'Anjou,45.59722114932571,-73.56279015541077,2,42
559,7098,Parc d'Antioche,45.59535188887634,-73.55858981609344,2,40
560,7099,Vezina / Victoria,45.49704689488635,-73.64321619272232,6,57
561,7100,Métro Namur (des Jockeys / Décarie),45.49404432109336,-73.65449488162994,3,51
562,7101,Métro de la Savane (de Sorel / Bougainville),45.50045094800223,-73.66142839193344,3,44
563,7102,Grand Boulevard / de Terrebonne,45.47054370043364,-73.63168001174927,1,63
564,7103,St-Joseph / 8e avenue Lachine,45.43147138678842,-73.67120504379272,3,24
565,7104,8e avenue / Notre-Dame Lachine,45.43498715540587,-73.67079868912697,3,25
566,7105,St-Joseph / 34e avenue Lachine,45.432839840726125,-73.69349151849747,1,19
567,7106,Victoria / 18e avenue Lachine,45.43579350588776,-73.6801904439926,3,23
568,7107,19e avenue / St-Joseph Lachine,45.43312379149661,-73.68140548467636,4,20
569,7112,Newman / Senkus,45.44404309237571,-73.61375212669373,1,32
570,7113,Casgrain / Maguire,45.52593260934618,-73.59525293111801,51,73
571,7114,Smith / Peel,45.492837758845226,-73.5564199090004,21,13
572,7115,Métro Radisson (Sherbrooke / des Groseilliers),45.58917500418707,-73.53965610265732,3,32
573,7116,Métro Honoré-Beaugrand (Sherbrooke / Honoré-Beaugrand),45.5967964774917,-73.53517949581145,3,32
574,7117,François-Boivin / Bélanger,45.59259615276133,-73.56617510318756,3,42
575,7118,Tellier / des Futailles,45.58600999065885,-73.52183818817139,1,12
576,7119,Notre-Dame / Liébert,45.59280261038491,-73.51046562194824,1,11
577,7120,Notre-Dame / des Ormeaux,45.59920617334637,-73.5122399032116,8,12
578,7121,de Bruxelles / Hochelaga,45.59264808020603,-73.52521777153015,2,23
579,7122,de Belleville / Fleury,45.58116002977833,-73.64124342799187,1,41
580,7123,des Récollets / Martial,45.59089190991344,-73.64061713218689,1,29
581,7124,Dollard / Bernard,45.51678269880724,-73.61142262816429,14,77
582,7125,Rosemont / Viau,45.56833021674857,-73.56666326522826,6,43
583,7126,41e avenue / Rosemont,45.57178977666956,-73.56431499123573,6,45
584,7127,Jeanne-Mance / Beaubien,45.527650097960205,-73.61229971051216,32,63
585,7128,Métro Côte-Vertu (Gohier / Edouard-Laurin),45.512989627641865,-73.68249848484993,2,32
586,7129,de l'Eglise / St-Germain,45.51255920872999,-73.67701068520546,3,40
587,7130,Métro du Collège (Cartier / Décarie),45.50843904979172,-73.6729645729065,4,42
588,7131,Bibliothèque du Boisé (Thimens / Todd),45.50463493033909,-73.70443224906921,2,30
589,7132,Ste-Croix / Tassé,45.519492499678165,-73.6851042509079,8,31
590,7133,Thimens / Alexis-Nihon,45.50897852206792,-73.69856357574463,2,25
591,7134,Poirier / O'Brien,45.52246015438048,-73.69156435132027,14,28
592,7135,Cavendish / Poirier,45.50622283591452,-73.71148109436035,43,31
593,7136,Marcel-Laurin / Beaudet,45.50684315902468,-73.68175685405731,3,40
594,7137,de Lisieux / Jean-Talon,45.57934937043077,-73.58168095350266,2,44
595,7138,Dumesnil / Bélanger,45.587777966914885,-73.56935352087021,2,36
596,7139,Parc Plage,45.50282785563674,-73.52779269218445,2,13
597,7140,St-Jacques / des Seigneurs,45.48918571608228,-73.57190027832984,31,15
598,7141,Turgeon / Notre-Dame,45.47888852807208,-73.58198940753937,15,23
599,7142,Elgar / de l'Île-des-Sœurs,45.45682318753668,-73.546804189682,1,15
600,7143,LaSalle / Godin,45.44693448484644,-73.57219934463501,5,17
601,7144,Hickson / Wellington,45.46489251773306,-73.56699787080288,9,13
602,7145,Argyle / Bannantyne,45.453318765468914,-73.5767751932144,10,17
603,7146,Lusignan / St-Jacques,45.492222393331566,-73.56934815645218,37,18
604,7147,Métro de Castelnau (de Castelnau / Clark),45.53473935096963,-73.62076878547667,28,59
605,7148,Papineau / Émile-Journault,45.55988367688166,-73.63356828689575,2,40
606,7149,16e avenue / Jean-Talon,45.56244008398078,-73.59533339738846,4,50
607,7152,Parc St-Claude (7e avenue / 8e rue),45.56266824826759,-73.6923623085022,2,27
608,7153,Métro Cartier (des Laurentides / Cartier),45.56002974868339,-73.68133574724197,1,17
